{
    "aws": {
        "af-south-1": {
            "short_name": "af-south-1",
            "long_name": "Africa (Cape Town)",
            "latitude": -33.928992,
            "longitude": 18.417396
        },
        "ap-east-1": {
            "short_name": "ap-east-1",
            "long_name": "Asia Pacific (Hong Kong)",
            "latitude": 22.350627,
            "longitude": 114.1849161
        },
        "ap-northeast-1": {
            "short_name": "ap-northeast-1",
            "long_name": "Asia Pacific (Tokyo)",
            "latitude": 35.6821936,
            "longitude": 139.762221
        },
        "ap-northeast-2": {
            "short_name": "ap-northeast-2",
            "long_name": "Asia Pacific (Seoul)",
            "latitude": 37.5666791,
            "longitude": 126.9782914
        },
        "ap-northeast-3": {
            "short_name": "ap-northeast-3",
            "long_name": "Asia Pacific (Osaka)",
            "latitude": 34.6198813,
            "longitude": 135.490357
        },
        "ap-south-1": {
            "short_name": "ap-south-1",
            "long_name": "Asia Pacific (Mumbai)",
            "latitude": 18.9733536,
            "longitude": 72.82810491917377
        },
        "ap-south-2": {
            "short_name": "ap-south-2",
            "long_name": "Asia Pacific (Hyderabad)",
            "latitude": 17.360589,
            "longitude": 78.4740613
        },
        "ap-southeast-1": {
            "short_name": "ap-southeast-1",
            "long_name": "Asia Pacific (Singapore)",
            "latitude": 1.357107,
            "longitude": 103.8194992
        },
        "ap-southeast-2": {
            "short_name": "ap-southeast-2",
            "long_name": "Asia Pacific (Sydney)",
            "latitude": -33.8698439,
            "longitude": 151.2082848
        },
        "ap-southeast-3": {
            "short_name": "ap-southeast-3",
            "long_name": "Asia Pacific (Jakarta)",
            "latitude": -6.175247,
            "longitude": 106.8270488
        },
        "ap-southeast-4": {
            "short_name": "ap-southeast-4",
            "long_name": "Asia Pacific (Melbourne)",
            "latitude": -37.8142454,
            "longitude": 144.9631732
        },
        "ca-central-1": {
            "short_name": "ca-central-1",
            "long_name": "Canada (Central)",
            "latitude": 45.5031824,
            "longitude": -73.5698065
        },
        "ca-west-1": {
            "short_name": "ca-west-1",
            "long_name": "Canada West (Calgary)",
            "latitude": 51.0456064,
            "longitude": -114.057541
        },
        "eu-central-1": {
            "short_name": "eu-central-1",
            "long_name": "Europe (Frankfurt)",
            "latitude": 50.1106444,
            "longitude": 8.6820917
        },
        "eu-central-2": {
            "short_name": "eu-central-2",
            "long_name": "Europe (Zurich)",
            "latitude": 47.3744489,
            "longitude": 8.5410422
        },
        "eu-north-1": {
            "short_name": "eu-north-1",
            "long_name": "Europe (Stockholm)",
            "latitude": 59.3251172,
            "longitude": 18.0710935
        },
        "eu-south-1": {
            "short_name": "eu-south-1",
            "long_name": "Europe (Milan)",
            "latitude": 45.4641943,
            "longitude": 9.1896346
        },
        "eu-south-2": {
            "short_name": "eu-south-2",
            "long_name": "Europe (Spain)",
            "latitude": 39.3260685,
            "longitude": -4.8379791
        },
        "eu-west-1": {
            "short_name": "eu-west-1",
            "long_name": "Europe (Ireland)",
            "latitude": 53.3493795,
            "longitude": -6.2605593
        },
        "eu-west-2": {
            "short_name": "eu-west-2",
            "long_name": "Europe (London)",
            "latitude": 51.4893335,
            "longitude": -0.14405508452768728
        },
        "eu-west-3": {
            "short_name": "eu-west-3",
            "long_name": "Europe (Paris)",
            "latitude": 48.8588897,
            "longitude": 2.3200410217200766
        },
        "il-central-1": {
            "short_name": "il-central-1",
            "long_name": "Israel (Tel Aviv)",
            "latitude": 32.0852997,
            "longitude": 34.7818064
        },
        "me-central-1": {
            "short_name": "me-central-1",
            "long_name": "Middle East (UAE)",
            "latitude": 25.074282349999997,
            "longitude": 55.18853865430702
        },
        "me-south-1": {
            "short_name": "me-south-1",
            "long_name": "Middle East (Bahrain)",
            "latitude": 26.1551249,
            "longitude": 50.5344606
        },
        "sa-east-1": {
            "short_name": "sa-east-1",
            "long_name": "South America (Sao Paulo)",
            "latitude": -23.5506507,
            "longitude": -46.6333824
        },
        "us-east-1": {
            "short_name": "us-east-1",
            "long_name": "US East (N. Virginia)",
            "latitude": 39.030019100000004,
            "longitude": -77.46964646557657
        },
        "us-east-2": {
            "short_name": "us-east-2",
            "long_name": "US East (Ohio)",
            "latitude": 39.9622601,
            "longitude": -83.0007065
        },
        "us-west-1": {
            "short_name": "us-west-1",
            "long_name": "US West (N. California)",
            "latitude": 37.7792588,
            "longitude": -122.4193286
        },
        "us-west-2": {
            "short_name": "us-west-2",
            "long_name": "US West (Oregon)",
            "latitude": 45.839855,
            "longitude": -119.700583
        }
    },
    "digitalocean": {
        "nyc1": {
            "short_name": "nyc1",
            "long_name": "New York 1",
            "latitude": 40.7127281,
            "longitude": -74.0060152
        },
        "sfo1": {
            "short_name": "sfo1",
            "long_name": "San Francisco 1",
            "latitude": 37.7792588,
            "longitude": -122.4193286
        },
        "nyc2": {
            "short_name": "nyc2",
            "long_name": "New York 2",
            "latitude": 40.7127281,
            "longitude": -74.0060152
        },
        "ams2": {
            "short_name": "ams2",
            "long_name": "Amsterdam 2",
            "latitude": 52.3730796,
            "longitude": 4.8924534
        },
        "sgp1": {
            "short_name": "sgp1",
            "long_name": "Singapore 1",
            "latitude": 1.357107,
            "longitude": 103.8194992
        },
        "lon1": {
            "short_name": "lon1",
            "long_name": "London 1",
            "latitude": 51.4893335,
            "longitude": -0.14405508452768728
        },
        "nyc3": {
            "short_name": "nyc3",
            "long_name": "New York 3",
            "latitude": 40.7127281,
            "longitude": -74.0060152
        },
        "ams3": {
            "short_name": "ams3",
            "long_name": "Amsterdam 3",
            "latitude": 52.3730796,
            "longitude": 4.8924534
        },
        "fra1": {
            "short_name": "fra1",
            "long_name": "Frankfurt 1",
            "latitude": 50.1106444,
            "longitude": 8.6820917
        },
        "tor1": {
            "short_name": "tor1",
            "long_name": "Toronto 1",
            "latitude": 43.6534817,
            "longitude": -79.3839347
        },
        "sfo2": {
            "short_name": "sfo2",
            "long_name": "San Francisco 2",
            "latitude": 37.7792588,
            "longitude": -122.4193286
        },
        "blr1": {
            "short_name": "blr1",
            "long_name": "Bangalore 1",
            "latitude": 12.9767936,
            "longitude": 77.590082
        },
        "sfo3": {
            "short_name": "sfo3",
            "long_name": "San Francisco 3",
            "latitude": 37.7792588,
            "longitude": -122.4193286
        },
        "syd1": {
            "short_name": "syd1",
            "long_name": "Sydney 1",
            "latitude": -33.8698439,
            "longitude": 151.2082848
        }
    },
    "gcp": {
        "us-west1": {
            "short_name": "us-west1",
            "long_name": "Oregon",
            "latitude": 45.6015056,
            "longitude": -121.1841587
        },
        "us-west2": {
            "short_name": "us-west2",
            "long_name": "Los Angeles",
            "latitude": 34.0536909,
            "longitude": -118.242766
        },
        "us-west3": {
            "short_name": "us-west3",
            "long_name": "Salt Lake City",
            "latitude": 40.7596198,
            "longitude": -111.886797
        },
        "us-west4": {
            "short_name": "us-west4",
            "long_name": "Las Vegas",
            "latitude": 36.1672559,
            "longitude": -115.148516
        },
        "us-central1": {
            "short_name": "us-central1",
            "long_name": "Iowa",
            "latitude": 41.258841,
            "longitude": -95.8519484
        },
        "us-east1": {
            "short_name": "us-east1",
            "long_name": "South Carolina",
            "latitude": 33.1960027,
            "longitude": -80.0131374
        },
        "us-east4": {
            "short_name": "us-east4",
            "long_name": "N. Virginia",
            "latitude": 39.030019100000004,
            "longitude": -77.46964646557657
        },
        "us-east5": {
            "short_name": "us-east5",
            "long_name": "Columbus",
            "latitude": 39.9622601,
            "longitude": -83.0007065
        },
        "us-south1": {
            "short_name": "us-south1",
            "long_name": "Dallas",
            "latitude": 32.7762719,
            "longitude": -96.7968559
        },
        "northamerica-northeast1": {
            "short_name": "northamerica-northeast1",
            "long_name": "Montr\u00e9al",
            "latitude": 45.5031824,
            "longitude": -73.5698065
        },
        "northamerica-northeast2": {
            "short_name": "northamerica-northeast2",
            "long_name": "Toronto",
            "latitude": 43.6534817,
            "longitude": -79.3839347
        },
        "southamerica-west1": {
            "short_name": "southamerica-west1",
            "long_name": "Santiago",
            "latitude": -33.4377756,
            "longitude": -70.6504502
        },
        "southamerica-east1": {
            "short_name": "southamerica-east1",
            "long_name": "S\u00e3o Paulo",
            "latitude": -23.5506507,
            "longitude": -46.6333824
        },
        "europe-west2": {
            "short_name": "europe-west2",
            "long_name": "London",
            "latitude": 51.4893335,
            "longitude": -0.14405508452768728
        },
        "europe-west1": {
            "short_name": "europe-west1",
            "long_name": "Belgium",
            "latitude": 50.4477484,
            "longitude": 3.8195241
        },
        "europe-west4": {
            "short_name": "europe-west4",
            "long_name": "Netherlands",
            "latitude": 53.44847365,
            "longitude": 6.849962702578557
        },
        "europe-west6": {
            "short_name": "europe-west6",
            "long_name": "Zurich",
            "latitude": 47.3744489,
            "longitude": 8.5410422
        },
        "europe-west3": {
            "short_name": "europe-west3",
            "long_name": "Frankfurt",
            "latitude": 50.1106444,
            "longitude": 8.6820917
        },
        "europe-north1": {
            "short_name": "europe-north1",
            "long_name": "Finland",
            "latitude": 60.5688901,
            "longitude": 27.1881877
        },
        "europe-central2": {
            "short_name": "europe-central2",
            "long_name": "Warsaw",
            "latitude": 52.2337172,
            "longitude": 21.071432235636493
        },
        "europe-west8": {
            "short_name": "europe-west8",
            "long_name": "Milan",
            "latitude": 45.4641943,
            "longitude": 9.1896346
        },
        "europe-southwest1": {
            "short_name": "europe-southwest1",
            "long_name": "Madrid",
            "latitude": 40.4167047,
            "longitude": -3.7035825
        },
        "europe-west9": {
            "short_name": "europe-west9",
            "long_name": "Paris",
            "latitude": 48.8588897,
            "longitude": 2.3200410217200766
        },
        "europe-west12": {
            "short_name": "europe-west12",
            "long_name": "Turin",
            "latitude": 45.0677551,
            "longitude": 7.6824892
        },
        "europe-west10": {
            "short_name": "europe-west10",
            "long_name": "Berlin",
            "latitude": 52.5170365,
            "longitude": 13.3888599
        },
        "asia-south1": {
            "short_name": "asia-south1",
            "long_name": "Mumbai",
            "latitude": 18.9733536,
            "longitude": 72.82810491917377
        },
        "asia-south2": {
            "short_name": "asia-south2",
            "long_name": "Delhi",
            "latitude": 28.6273928,
            "longitude": 77.1716954
        },
        "asia-southeast1": {
            "short_name": "asia-southeast1",
            "long_name": "Singapore",
            "latitude": 1.357107,
            "longitude": 103.8194992
        },
        "asia-southeast2": {
            "short_name": "asia-southeast2",
            "long_name": "Jakarta",
            "latitude": -6.175247,
            "longitude": 106.8270488
        },
        "asia-east2": {
            "short_name": "asia-east2",
            "long_name": "Hong Kong",
            "latitude": 22.350627,
            "longitude": 114.1849161
        },
        "asia-east1": {
            "short_name": "asia-east1",
            "long_name": "Taiwan",
            "latitude": 23.5983227,
            "longitude": 120.83537694479215
        },
        "asia-northeast1": {
            "short_name": "asia-northeast1",
            "long_name": "Tokyo",
            "latitude": 35.6821936,
            "longitude": 139.762221
        },
        "asia-northeast2": {
            "short_name": "asia-northeast2",
            "long_name": "Osaka",
            "latitude": 34.6198813,
            "longitude": 135.490357
        },
        "australia-southeast1": {
            "short_name": "australia-southeast1",
            "long_name": "Sydney",
            "latitude": -33.8698439,
            "longitude": 151.2082848
        },
        "australia-southeast2": {
            "short_name": "australia-southeast2",
            "long_name": "Melbourne",
            "latitude": -37.8142454,
            "longitude": 144.9631732
        },
        "asia-northeast3": {
            "short_name": "asia-northeast3",
            "long_name": "Seoul",
            "latitude": 37.5666791,
            "longitude": 126.9782914
        },
        "me-west1": {
            "short_name": "me-west1",
            "long_name": "Tel Aviv",
            "latitude": 32.0852997,
            "longitude": 34.7818064
        },
        "me-central1": {
            "short_name": "me-central1",
            "long_name": "Doha",
            "latitude": 25.2856329,
            "longitude": 51.5264162
        },
        "me-central2": {
            "short_name": "me-central2",
            "long_name": "Dammam",
            "latitude": 26.4367824,
            "longitude": 50.1039991
        },
        "africa-south1": {
            "short_name": "africa-south1",
            "long_name": "Johannesburg",
            "latitude": -26.205,
            "longitude": 28.049722
        }
    }
}
